"","id","type","name","zone","coordinates","lon","lat","alt"
"1","1000002","tube","Acton Town",3,"-.280251203536110600,51.502749773000570000,0",-0.280251203536111,51.5027497730006,0
"2","1000003","tube","Aldgate",1,"-.075614184477749600,51.514271823083390000,0",-0.0756141844777496,51.5142718230834,0
"3","1000004","tube","Aldgate East",1,"-.072287119975365420,51.515233413796480000,0",-0.0722871199753654,51.5152334137965,0
"4","1000005","tube","Alperton",4,"-.299486538678611470,51.540694766293470000,0",-0.299486538678611,51.5406947662935,0
"5","1000006","tube","Amersham",6,"-.607478839102469000,51.674149710629730000,0",-0.607478839102469,51.6741497106297,0
"6","1000007","tube","Angel",1,"-.105789913665305300,51.532498868904300000,0",-0.105789913665305,51.5324988689043,0
"7","1000008","tube","Archway",2,"-.135113518210335370,51.565426754533750000,0",-0.135113518210335,51.5654267545338,0
"8","1000009","tube","Arnos Grove",4,"-.133516309581780070,51.616340261056756000,0",-0.13351630958178,51.6163402610568,0
"9","1000010","tube","Arsenal",2,"-.105761988175557870,51.558498768776680000,0",-0.105761988175558,51.5584987687767,0
"10","1000011","tube","Baker Street",1,"-.156900356057780880,51.523061248142790000,0",-0.156900356057781,51.5230612481428,0
"11","1000012","tube","Balham",3,"-.153207552666472820,51.443328979635250000,0",-0.153207552666473,51.4433289796352,0
"12","1000013","tube","Bank",1,"-.088915809045260000,51.513302371519344000,0",-0.08891580904526,51.5133023715193,0
"13","1000014","tube","Barbican",1,"-.097711123216248310,51.520145725324900000,0",-0.0977111232162483,51.5201457253249,0
"14","1000015","tube","Barking",4,".080863182849410430,51.539451208515715000,0",0.0808631828494104,51.5394512085157,0
"15","1000016","tube","Barkingside",5,".088511013821779280,51.585785960390545000,0",0.0885110138217793,51.5857859603905,0
"16","1000017","tube","Barons Court",2,"-.213606857361082370,51.490159942708935000,0",-0.213606857361082,51.4901599427089,0
"17","1000018","tube","Bayswater",1,"-.188038262221618460,51.512233058741060000,0",-0.188038262221618,51.5122330587411,0
"18","1000019","tube","Becontree",5,".127400321155280580,51.540288535204700000,0",0.127400321155281,51.5402885352047,0
"19","1000020","tube","Belsize Park",2,"-.164232306333818050,51.550426627718240000,0",-0.164232306333818,51.5504266277182,0
"20","1000021","tube","Bermondsey",2,"-.063651350918079250,51.497949119581570000,0",-0.0636513509180792,51.4979491195816,0
"21","1000022","tube","Bethnal Green",2,"-.055431117145884300,51.527195236069566000,0",-0.0554311171458843,51.5271952360696,0
"22","1000023","tube","Blackfriars",1,"-.103606731219862620,51.511490522247490000,0",-0.103606731219863,51.5114905222475,0
"23","1000024","tube","Blackhorse Road",3,"-.040996340920370744,51.586951195438930000,0",-0.0409963409203707,51.5869511954389,0
"24","1000025","tube","Bond Street",1,"-.149332354586202300,51.513804535388070000,0",-0.149332354586202,51.5138045353881,0
"25","1000026","tube","Borough",1,"-.093702664758373440,51.501193998928510000,0",-0.0937026647583734,51.5011939989285,0
"26","1000027","tube","Boston Manor",4,"-.324763573796374050,51.495696382188164000,0",-0.324763573796374,51.4956963821882,0
"27","1000028","tube","Bounds Green",3,"-.124218963208536690,51.607090556952755000,0",-0.124218963208537,51.6070905569528,0
"28","1000029","tube","Bow Road",2,"-.024823746874528683,51.526800254826064000,0",-0.0248237468745287,51.5268002548261,0
"29","1000030","tube","Brent Cross",3,"-.213455833755365300,51.576800471443870000,0",-0.213455833755365,51.5768004714439,0
"30","1000031","tube","Brixton",2,"-.114635581578615600,51.462581333631725000,0",-0.114635581578616,51.4625813336317,0
"31","1000033","tube","Buckhurst Hill",5,".046743856240495990,51.626517330409435000,0",0.046743856240496,51.6265173304094,0
"32","1000034","tube","Burnt Oak",4,"-.264198758145630100,51.602681099702550000,0",-0.26419875814563,51.6026810997026,0
"33","1000035","tube","Caledonian Road",2,"-.118312333133271940,51.548421318403776000,0",-0.118312333133272,51.5484213184038,0
"34","1000036","tube","Camden Town",2,"-.142726148730286300,51.539403522631090000,0",-0.142726148730286,51.5394035226311,0
"35","1000037","tube","Canada Water",2,"-.049705986794378270,51.497888681995114000,0",-0.0497059867943783,51.4978886819951,0
"36","1000038","tube","Canary Wharf",2,"-.019431816253263262,51.503550485647594000,0",-0.0194318162532633,51.5035504856476,0
"37","1000039","tube","Canning Town",3,".008171036532588041,51.513837129289570000,0",0.00817103653258804,51.5138371292896,0
"38","1000040","tube","Cannon Street",1,"-.090694850680980680,51.511433722337300000,0",-0.0906948506809807,51.5114337223373,0
"39","1000041","tube","Canons Park",5,"-.294653740878426550,51.607759515215320000,0",-0.294653740878427,51.6077595152153,0
"40","1000042","tube","Chalfont & Latimer",6,"-.560534956448776200,51.668025473926090000,0",-0.560534956448776,51.6680254739261,0
"41","1000043","tube","Chalk Farm",2,"-.153728009451251480,51.544083102422630000,0",-0.153728009451251,51.5440831024226,0
"42","1000044","tube","Chancery Lane",1,"-.111677427383970640,51.518123230614440000,0",-0.111677427383971,51.5181232306144,0
"43","1000045","tube","Charing Cross",1,"-.124754686624366030,51.508593207603190000,0",-0.124754686624366,51.5085932076032,0
"44","1000046","tube","Chesham",6,"-.611219246324909900,51.705030454829610000,0",-0.61121924632491,51.7050304548296,0
"45","1000047","tube","Chigwell",5,".074526611263722940,51.617871925405100000,0",0.0745266112637229,51.6178719254051,0
"46","1000048","tube","Chiswick Park",3,"-.267746873913726140,51.494300591745144000,0",-0.267746873913726,51.4943005917451,0
"47","1000049","tube","Chorleywood",6,"-.518365989763054100,51.654217860774500000,0",-0.518365989763054,51.6542178607745,0
"48","1000050","tube","Clapham Common",2,"-.138311459464252400,51.461727933283946000,0",-0.138311459464252,51.4617279332839,0
"49","1000051","tube","Clapham North",2,"-.129531053727598040,51.464843732027760000,0",-0.129531053727598,51.4648437320278,0
"50","1000052","tube","Clapham South",2,"-.147982098639174410,51.452599834714476000,0",-0.147982098639174,51.4525998347145,0
"51","1000053","tube","Cockfosters",5,"-.149614715155877680,51.651687534574954000,0",-0.149614715155878,51.651687534575,0
"52","1000054","tube","Colindale",4,"-.250142587760251700,51.595286518799250000,0",-0.250142587760252,51.5952865187992,0
"53","1000055","tube","Colliers Wood",3,"-.177700936628786360,51.418071885122640000,0",-0.177700936628786,51.4180718851226,0
"54","1000056","tube","Covent Garden",1,"-.124159260603112690,51.512909586141590000,0",-0.124159260603113,51.5129095861416,0
"55","1000057","tube","Croxley",6,"-.441710992609101700,51.647046338116360000,0",-0.441710992609102,51.6470463381164,0
"56","1000058","tube","Dagenham East",5,".165874869677022780,51.544116734223610000,0",0.165874869677023,51.5441167342236,0
"57","1000059","tube","Dagenham Heathway",5,".147684194913217710,51.541627413616190000,0",0.147684194913218,51.5416274136162,0
"58","1000060","tube","Debden",6,".083837809879712370,51.645434322048956000,0",0.0838378098797124,51.645434322049,0
"59","1000061","tube","Dollis Hill",3,"-.238797558508156870,51.551903559056100000,0",-0.238797558508157,51.5519035590561,0
"60","1000062","tube","Ealing Broadway",3,"-.301500096369187100,51.514913033739160000,0",-0.301500096369187,51.5149130337392,0
"61","1000063","tube","Ealing Common",3,"-.288260381056999100,51.510124738537850000,0",-0.288260381056999,51.5101247385378,0
"62","1000064","tube","Earl's Court",1,"-.193545854058733800,51.491803907898900000,0",-0.193545854058734,51.4918039078989,0
"63","1000065","tube","East Acton",2,"-.247513203550207700,51.516582199054170000,0",-0.247513203550208,51.5165821990542,0
"64","1000067","tube","East Finchley",3,"-.164738305623223720,51.587271719132026000,0",-0.164738305623224,51.587271719132,0
"65","1000068","tube","East Ham",3,".051475548835470040,51.538926036547580000,0",0.05147554883547,51.5389260365476,0
"66","1000069","tube","East Putney",2,"-.211003174222271470,51.458804746350000000,0",-0.211003174222271,51.45880474635,0
"67","1000066","tube","Eastcote",5,"-.396844627186990200,51.576493044501650000,0",-0.39684462718699,51.5764930445017,0
"68","1000070","tube","Edgware",5,"-.274976006045290200,51.613623079849460000,0",-0.27497600604529,51.6136230798495,0
"69","1000073","tube","Elephant & Castle",1,"-.100729603883341970,51.495777047270740000,0",-0.100729603883342,51.4957770472707,0
"70","1000074","tube","Elm Park",6,".199180459239238080,51.549801253986864000,0",0.199180459239238,51.5498012539869,0
"71","1000075","tube","Embankment",1,"-.122360215814178660,51.507241796748396000,0",-0.122360215814179,51.5072417967484,0
"72","1000076","tube","Epping",6,".113866915583570900,51.693624607565480000,0",0.113866915583571,51.6936246075655,0
"73","1000077","tube","Euston",1,"-.133289718799315530,51.528596260899460000,0",-0.133289718799316,51.5285962608995,0
"74","1000078","tube","Euston Square",1,"-.135836140694320340,51.525561006016105000,0",-0.13583614069432,51.5255610060161,0
"75","1000079","tube","Fairlop",5,".090929226191151620,51.595680931861040000,0",0.0909292261911516,51.595680931861,0
"76","1000080","tube","Farringdon",1,"-.105065254236880330,51.520444754930790000,0",-0.10506525423688,51.5204447549308,0
"77","1000081","tube","Finchley Central",4,"-.192447107072110800,51.600976420785250000,0",-0.192447107072111,51.6009764207853,0
"78","1000082","tube","Finchley Road",2,"-.180494175915812260,51.547064834336794000,0",-0.180494175915812,51.5470648343368,0
"79","1000083","tube","Finsbury Park",2,"-.106512100282158470,51.564401648484590000,0",-0.106512100282158,51.5644016484846,0
"80","1000084","tube","Fulham Broadway",2,"-.194956844603215860,51.480529784298170000,0",-0.194956844603216,51.4805297842982,0
"81","1000085","tube","Gants Hill",4,".066115533982912160,51.576487548031560000,0",0.0661155339829122,51.5764875480316,0
"82","1000086","tube","Gloucester Road",1,"-.182989526482896930,51.494239783916480000,0",-0.182989526482897,51.4942397839165,0
"83","1000087","tube","Golders Green",3,"-.193993261252232000,51.572221393232800000,0",-0.193993261252232,51.5722213932328,0
"84","1000088","tube","Goldhawk Road",2,"-.226748329203583370,51.501952197301270000,0",-0.226748329203583,51.5019521973013,0
"85","1000089","tube","Goodge Street",1,"-.134662152092394320,51.520424996045500000,0",-0.134662152092394,51.5204249960455,0
"86","1000090","tube","Grange Hill",5,".092146407242701880,51.613349857801460000,0",0.0921464072427019,51.6133498578015,0
"87","1000091","tube","Great Portland Street",1,"-.143956086447368930,51.523720314628890000,0",-0.143956086447369,51.5237203146289,0
"88","1000093","tube","Green Park",1,"-.142927422207874380,51.506850108502306000,0",-0.142927422207874,51.5068501085023,0
"89","1000092","tube","Greenford",4,"-.346444146567460000,51.542302026759124000,0",-0.34644414656746,51.5423020267591,0
"90","1000095","tube","Hainault",5,".093119014044497110,51.603727217978240000,0",0.0931190140444971,51.6037272179782,0
"91","1000098","tube","Hampstead",2,"-.178219762924764630,51.556688476264430000,0",-0.178219762924765,51.5566884762644,0
"92","1000099","tube","Hanger Lane",3,"-.293007522620696200,51.530006403588040000,0",-0.293007522620696,51.530006403588,0
"93","1000103","tube","Hatton Cross",5,"-.423409349454662700,51.466614173462760000,0",-0.423409349454663,51.4666141734628,0
"94","1000104","tube","Heathrow Terminal 4",6,"-.446058766977937300,51.458553104092005000,0",-0.446058766977937,51.458553104092,0
"95","1000106","tube","Hendon Central",3,"-.226496207803293200,51.583293830072000000,0",-0.226496207803293,51.583293830072,0
"96","1000107","tube","High Barnet",5,"-.194751021947520400,51.650601170588565000,0",-0.19475102194752,51.6506011705886,0
"97","1000110","tube","High Street Kensington",1,"-.192503135590810750,51.500673420263205000,0",-0.192503135590811,51.5006734202632,0
"98","1000108","tube","Highbury & Islington",2,"-.103964238784979300,51.546229491737870000,0",-0.103964238784979,51.5462294917379,0
"99","1000109","tube","Highgate",3,"-.146638422561128380,51.577597829618790000,0",-0.146638422561128,51.5775978296188,0
"100","1000111","tube","Hillingdon",6,"-.449926295661858930,51.553716844570935000,0",-0.449926295661859,51.5537168445709,0
"101","1000112","tube","Holborn",1,"-.120008849244825100,51.517438783075970000,0",-0.120008849244825,51.517438783076,0
"102","1000113","tube","Holland Park",2,"-.205728672749766300,51.507334043150680000,0",-0.205728672749766,51.5073340431507,0
"103","1000114","tube","Holloway Road",2,"-.112925632539152260,51.552750537878600000,0",-0.112925632539152,51.5527505378786,0
"104","1000115","tube","Hornchurch",6,".219018986707928050,51.554005256006330000,0",0.219018986707928,51.5540052560063,0
"105","1000116","tube","Hounslow Central",4,"-.366922420319065300,51.471083300365436000,0",-0.366922420319065,51.4710833003654,0
"106","1000117","tube","Hounslow East",4,"-.356695318244920060,51.473170615833226000,0",-0.35669531824492,51.4731706158332,0
"107","1000118","tube","Hounslow West",5,"-.385731868407531600,51.473034798965720000,0",-0.385731868407532,51.4730347989657,0
"108","1000119","tube","Hyde Park Corner",1,"-.152748811981766980,51.502760411212570000,0",-0.152748811981767,51.5027604112126,0
"109","1000120","tube","Ickenham",6,"-.442026555689012170,51.561984742559240000,0",-0.442026555689012,51.5619847425592,0
"110","1000121","tube","Kennington",2,"-.105485152526283220,51.488119530611540000,0",-0.105485152526283,51.4881195306115,0
"111","1000123","tube","Kentish Town",2,"-.140464192953272140,51.550303762237870000,0",-0.140464192953272,51.5503037622379,0
"112","1000126","tube","Kilburn",2,"-.204633341254655960,51.546879502456840000,0",-0.204633341254656,51.5468795024568,0
"113","1000127","tube","Kilburn Park",2,"-.193965947368527200,51.535069084357000000,0",-0.193965947368527,51.535069084357,0
"114","1000128","tube","Kingsbury",4,"-.278799057434066500,51.584756866190325000,0",-0.278799057434067,51.5847568661903,0
"115","1000130","tube","Knightsbridge",1,"-.160507091328832150,51.501551433201136000,0",-0.160507091328832,51.5015514332011,0
"116","1000131","tube","Ladbroke Grove",2,"-.210861917848587150,51.517188449881736000,0",-0.210861917848587,51.5171884498817,0
"117","1000132","tube","Lambeth North",1,"-.111760270277701970,51.499058148698570000,0",-0.111760270277702,51.4990581486986,0
"118","1000133","tube","Lancaster Gate",1,"-.175428659257816700,51.511821534588610000,0",-0.175428659257817,51.5118215345886,0
"119","1000134","tube","Latimer Road",2,"-.217779301792146050,51.513543593897175000,0",-0.217779301792146,51.5135435938972,0
"120","1000135","tube","Leicester Square",1,"-.128235532172760460,51.511221028367200000,0",-0.12823553217276,51.5112210283672,0
"121","1000136","tube","Leyton",3,"-.005619879781309080,51.556432927054910000,0",-0.00561987978130908,51.5564329270549,0
"122","1000137","tube","Leytonstone",3,".008215047486340644,51.568185263674590000,0",0.00821504748634064,51.5681852636746,0
"123","1000138","tube","Liverpool Street",1,"-.082965709456943840,51.517351230751740000,0",-0.0829657094569438,51.5173512307517,0
"124","1000139","tube","London Bridge",1,"-.086922404191941930,51.505499353249796000,0",-0.0869224041919419,51.5054993532498,0
"125","1000140","tube","Loughton",6,".055311997154570370,51.641512759080584000,0",0.0553119971545704,51.6415127590806,0
"126","1000141","tube","Maida Vale",2,"-.185625902229911570,51.529760016810314000,0",-0.185625902229912,51.5297600168103,0
"127","1000142","tube","Manor House",2,"-.095712466704881360,51.570756005284366000,0",-0.0957124667048814,51.5707560052844,0
"128","1000143","tube","Mansion House",1,"-.094187135312932570,51.512021200956030000,0",-0.0941871353129326,51.512021200956,0
"129","1000144","tube","Marble Arch",1,"-.158438046626587060,51.513543293181170000,0",-0.158438046626587,51.5135432931812,0
"130","1000145","tube","Marylebone",1,"-.163104487142123720,51.522223341970424000,0",-0.163104487142124,51.5222233419704,0
"131","1000146","tube","Mile End",2,"-.033404170381106150,51.525091871834480000,0",-0.0334041703811062,51.5250918718345,0
"132","1000147","tube","Mill Hill East",4,"-.209894419946043500,51.608258895239280000,0",-0.209894419946043,51.6082588952393,0
"133","1000148","tube","Monument",1,"-.088942732741562510,51.513347819184280000,0",-0.0889427327415625,51.5133478191843,0
"134","1000150","tube","Moor Park",6,"-.432666848603920740,51.629731090477620000,0",-0.432666848603921,51.6297310904776,0
"135","1000149","tube","Moorgate",1,"-.089006315013091150,51.518367249884620000,0",-0.0890063150130912,51.5183672498846,0
"136","1000151","tube","Morden",4,"-.194790700834515200,51.402336940766870000,0",-0.194790700834515,51.4023369407669,0
"137","1000152","tube","Mornington Crescent",2,"-.138842529989899570,51.534206610602570000,0",-0.1388425299899,51.5342066106026,0
"138","1000153","tube","Neasden",3,"-.249782872822431580,51.553965717461770000,0",-0.249782872822432,51.5539657174618,0
"139","1000154","tube","Newbury Park",4,".090337313681270550,51.575572493610600000,0",0.0903373136812706,51.5755724936106,0
"140","1000157","tube","North Acton",2,"-.259737385737795140,51.523365556364130000,0",-0.259737385737795,51.5233655563641,0
"141","1000158","tube","North Ealing",3,"-.289004979762560500,51.517555160358675000,0",-0.289004979762561,51.5175551603587,0
"142","1000160","tube","North Greenwich",2,".003607416938325964,51.500181823992640000,0",0.00360741693832596,51.5001818239926,0
"143","1000161","tube","North Harrow",5,"-.362223573258194200,51.584791846729885000,0",-0.362223573258194,51.5847918467299,0
"144","1000159","tube","Northfields",3,"-.314156832664969850,51.499276482193580000,0",-0.31415683266497,51.4992764821936,0
"145","1000162","tube","Northolt",5,"-.368459834282661160,51.548150439002740000,0",-0.368459834282661,51.5481504390027,0
"146","1000164","tube","Northwick Park",4,"-.318206356876206400,51.578592841487520000,0",-0.318206356876206,51.5785928414875,0
"147","1000165","tube","Northwood",6,"-.423860793851574430,51.611159228903716000,0",-0.423860793851574,51.6111592289037,0
"148","1000166","tube","Northwood Hills",6,"-.409298630674160700,51.600494576500000000,0",-0.409298630674161,51.6004945765,0
"149","1000167","tube","Notting Hill Gate",1,"-.196537685407762500,51.509063533643740000,0",-0.196537685407763,51.5090635336437,0
"150","1000168","tube","Oakwood",5,"-.131841721300937210,51.647583649194110000,0",-0.131841721300937,51.6475836491941,0
"151","1000169","tube","Old Street",1,"-.087549731436462540,51.525601323369810000,0",-0.0875497314364625,51.5256013233698,0
"152","1000171","tube","Osterley",4,"-.351994404645611300,51.480928804588714000,0",-0.351994404645611,51.4809288045887,0
"153","1000172","tube","Oval",2,"-.112893408798067650,51.482105452338025000,0",-0.112893408798068,51.482105452338,0
"154","1000173","tube","Oxford Circus",1,"-.141768983668966370,51.515123799037090000,0",-0.141768983668966,51.5151237990371,0
"155","1000174","tube","Paddington",1,"-.175390006010324200,51.515310415793490000,0",-0.175390006010324,51.5153104157935,0
"156","1000176","tube","Park Royal",3,"-.284228015904849400,51.526901379245410000,0",-0.284228015904849,51.5269013792454,0
"157","1000177","tube","Parsons Green",2,"-.201234656583119650,51.475095330474790000,0",-0.20123465658312,51.4750953304748,0
"158","1000178","tube","Perivale",4,"-.323852038492346400,51.536594089926690000,0",-0.323852038492346,51.5365940899267,0
"159","1000179","tube","Piccadilly Circus",1,"-.134006365558421630,51.510026995270750000,0",-0.134006365558422,51.5100269952707,0
"160","1000180","tube","Pimlico",1,"-.133748665287791170,51.489193760110520000,0",-0.133748665287791,51.4891937601105,0
"161","1000181","tube","Pinner",5,"-.380919804150348800,51.592857630090860000,0",-0.380919804150349,51.5928576300909,0
"162","1000182","tube","Plaistow",3,".017804698696490015,51.531218392483616000,0",0.01780469869649,51.5312183924836,0
"163","1000183","tube","Preston Road",4,"-.295256300158967800,51.572037991815020000,0",-0.295256300158968,51.572037991815,0
"164","1000184","tube","Putney Bridge",2,"-.208976678487921420,51.467902222271880000,0",-0.208976678487921,51.4679022222719,0
"165","1000185","tube","Queensbury",4,"-.285785681643207800,51.594347148072560000,0",-0.285785681643208,51.5943471480726,0
"166","1000187","tube","Queensway",1,"-.187434461364574480,51.510380051624610000,0",-0.187434461364574,51.5103800516246,0
"167","1000188","tube","Ravenscourt Park",2,"-.236258353945599400,51.494136531497860000,0",-0.236258353945599,51.4941365314979,0
"168","1000189","tube","Rayners Lane",5,"-.371005563517764870,51.574976703881340000,0",-0.371005563517765,51.5749767038813,0
"169","1000190","tube","Redbridge",4,".045423116107576156,51.576301792400690000,0",0.0454231161075762,51.5763017924007,0
"170","1000191","tube","Regent's Park",1,"-.146862634752862040,51.523505503468370000,0",-0.146862634752862,51.5235055034684,0
"171","1000193","tube","Rickmansworth",6,"-.473712107018385900,51.640272706988570000,0",-0.473712107018386,51.6402727069886,0
"172","1000194","tube","Roding Valley",5,".043864415463376070,51.617115241205420000,0",0.0438644154633761,51.6171152412054,0
"173","1000195","tube","Rotherhithe",2,"-.052180998321318894,51.501005694266450000,0",-0.0521809983213189,51.5010056942665,0
"174","1000196","tube","Royal Oak",2,"-.188230043028310500,51.519017120333290000,0",-0.188230043028311,51.5190171203333,0
"175","1000197","tube","Ruislip",6,"-.421455074014979600,51.571449113222800000,0",-0.42145507401498,51.5714491132228,0
"176","1000198","tube","Ruislip Gardens",5,"-.411039284928411100,51.560588503076744000,0",-0.411039284928411,51.5605885030767,0
"177","1000199","tube","Ruislip Manor",6,"-.412345792093259500,51.573187677867050000,0",-0.41234579209326,51.573187677867,0
"178","1000200","tube","Russell Square",1,"-.124310055647967780,51.522912845083240000,0",-0.124310055647968,51.5229128450832,0
"179","1000201","tube","Seven Sisters",3,"-.072491881494998600,51.583354184664740000,0",-0.0724918814949986,51.5833541846647,0
"180","1000202","tube","Shadwell",2,"-.056904475684454184,51.511228978184640000,0",-0.0569044756844542,51.5112289781846,0
"181","1000206","tube","Sloane Square",1,"-.156486231690913330,51.492287824097220000,0",-0.156486231690913,51.4922878240972,0
"182","1000207","tube","Snaresbrook",4,".021490462438689930,51.580827019760860000,0",0.0214904624386899,51.5808270197609,0
"183","1000208","tube","South Ealing",3,"-.307018839246706250,51.501367936344180000,0",-0.307018839246706,51.5013679363442,0
"184","1000211","tube","South Harrow",5,"-.352211570870426400,51.564677570548550000,0",-0.352211570870426,51.5646775705485,0
"185","1000212","tube","South Kensington",1,"-.173922310883827400,51.493999872763690000,0",-0.173922310883827,51.4939998727637,0
"186","1000214","tube","South Ruislip",5,"-.398658757175952700,51.556516957971670000,0",-0.398658757175953,51.5565169579717,0
"187","1000216","tube","South Wimbledon",3,"-.191979094023124400,51.415280365884330000,0",-0.191979094023124,51.4152803658843,0
"188","1000217","tube","South Woodford",4,".027317133742799650,51.591725648273090000,0",0.0273171337427996,51.5917256482731,0
"189","1000209","tube","Southfields",3,"-.206537544055385570,51.444931327018910000,0",-0.206537544055386,51.4449313270189,0
"190","1000210","tube","Southgate",4,"-.127758393371046300,51.632319710071860000,0",-0.127758393371046,51.6323197100719,0
"191","1000215","tube","Southwark",1,"-.105091836006184110,51.503843006939000000,0",-0.105091836006184,51.503843006939,0
"192","1000218","tube","Stamford Brook",2,"-.245453795237972340,51.494796231456820000,0",-0.245453795237972,51.4947962314568,0
"193","1000219","tube","Stanmore",5,"-.303108171358637650,51.619618336838600000,0",-0.303108171358638,51.6196183368386,0
"194","1000220","tube","Stepney Green",2,"-.046458666350820540,51.521910629627830000,0",-0.0464586663508205,51.5219106296278,0
"195","1000223","tube","Stockwell",2,"-.122909311662102960,51.472166538615750000,0",-0.122909311662103,51.4721665386158,0
"196","1000226","tube","Stratford",3,"-.003195329570308264,51.541309265966866000,0",-0.00319532957030826,51.5413092659669,0
"197","1000227","tube","Sudbury Hill",4,"-.336215632044355560,51.556996189234300000,0",-0.336215632044356,51.5569961892343,0
"198","1000228","tube","Sudbury Town",4,"-.315482697033724100,51.550782456897100000,0",-0.315482697033724,51.5507824568971,0
"199","1000229","tube","Surrey Quays",2,"-.047514931071433080,51.493193457463170000,0",-0.0475149310714331,51.4931934574632,0
"200","1000230","tube","Swiss Cottage",2,"-.174759253028733900,51.543315320154384000,0",-0.174759253028734,51.5433153201544,0
"201","1000231","tube","Temple",1,"-.113703089738369980,51.510969984944460000,0",-0.11370308973837,51.5109699849445,0
"202","1000232","tube","Theydon Bois",6,".103125376663494610,51.671711317303384000,0",0.103125376663495,51.6717113173034,0
"203","1000233","tube","Tooting Bec",3,"-.159700539935752140,51.435759628808380000,0",-0.159700539935752,51.4357596288084,0
"204","1000234","tube","Tooting Broadway",3,"-.167976763305219070,51.427435389662655000,0",-0.167976763305219,51.4274353896627,0
"205","1000235","tube","Tottenham Court Road",1,"-.130870518140944360,51.516209552513860000,0",-0.130870518140944,51.5162095525139,0
"206","1000236","tube","Tottenham Hale",3,"-.060281116367504950,51.588045301521500000,0",-0.060281116367505,51.5880453015215,0
"207","1000237","tube","Totteridge & Whetstone",4,"-.179261212923982800,51.630207704762380000,0",-0.179261212923983,51.6302077047624,0
"208","1000238","tube","Tower Hill",1,"-.076353695174605170,51.510065953884120000,0",-0.0763536951746052,51.5100659538841,0
"209","1000239","tube","Tufnell Park",2,"-.137924881080636940,51.556666819988955000,0",-0.137924881080637,51.556666819989,0
"210","1000240","tube","Turnham Green",2,"-.254532982987942970,51.495111725298166000,0",-0.254532982987943,51.4951117252982,0
"211","1000241","tube","Turnpike Lane",3,"-.102792275055815370,51.590296770154760000,0",-0.102792275055815,51.5902967701548,0
"212","1000242","tube","Upminster",6,".251087116066800950,51.558889076169990000,0",0.251087116066801,51.55888907617,0
"213","1000243","tube","Upminster Bridge",6,".235771220399919740,51.558750507947340000,0",0.23577122039992,51.5587505079473,0
"214","1000244","tube","Upney",4,".101565625591421570,51.538335312488270000,0",0.101565625591422,51.5383353124883,0
"215","1000245","tube","Upton Park",3,".035273180129164805,51.535233303921100000,0",0.0352731801291648,51.5352333039211,0
"216","1000246","tube","Uxbridge",6,"-.478139472136282440,51.546496370460570000,0",-0.478139472136282,51.5464963704606,0
"217","1000247","tube","Vauxhall",1,"-.123748951030590600,51.485733376040270000,0",-0.123748951030591,51.4857333760403,0
"218","1000248","tube","Victoria",1,"-.143844854340144740,51.496342174731000000,0",-0.143844854340145,51.496342174731,0
"219","1000249","tube","Walthamstow Central",3,"-.019918639025007567,51.582954705002570000,0",-0.0199186390250076,51.5829547050026,0
"220","1000250","tube","Wanstead",4,".028745919335254173,51.575521336921070000,0",0.0287459193352542,51.5755213369211,0
"221","1000251","tube","Wapping",2,"-.055846250896647850,51.504268283481814000,0",-0.0558462508966479,51.5042682834818,0
"222","1000252","tube","Warren Street",1,"-.138272313383213400,51.524511517547950000,0",-0.138272313383213,51.5245115175479,0
"223","1000253","tube","Warwick Avenue",2,"-.183678270688914820,51.523272522746110000,0",-0.183678270688915,51.5232725227461,0
"224","1000254","tube","Waterloo",1,"-.114069435807659030,51.503502207173680000,0",-0.114069435807659,51.5035022071737,0
"225","1000255","tube","Watford",6,"-.417280631945957540,51.657420971906490000,0",-0.417280631945958,51.6574209719065,0
"226","1000257","tube","Wembley Park",4,"-.279251008726512000,51.563260483955110000,0",-0.279251008726512,51.5632604839551,0
"227","1000258","tube","West Acton",3,"-.280993289991878060,51.517860586187880000,0",-0.280993289991878,51.5178605861879,0
"228","1000260","tube","West Brompton",2,"-.195540834373956750,51.487256950006746000,0",-0.195540834373957,51.4872569500067,0
"229","1000261","tube","West Finchley",4,"-.188468869728233300,51.609485709772600000,0",-0.188468869728233,51.6094857097726,0
"230","1000262","tube","West Ham",3,".005039507096672237,51.528181772941785000,0",0.00503950709667224,51.5281817729418,0
"231","1000263","tube","West Hampstead",2,"-.190749850256434300,51.546701979094905000,0",-0.190749850256434,51.5467019790949,0
"232","1000264","tube","West Harrow",5,"-.352920630985434100,51.579778193709345000,0",-0.352920630985434,51.5797781937093,0
"233","1000265","tube","West Kensington",2,"-.206477114705301220,51.490491685732100000,0",-0.206477114705301,51.4904916857321,0
"234","1000267","tube","West Ruislip",6,"-.437886436759924000,51.569528862920430000,0",-0.437886436759924,51.5695288629204,0
"235","1000259","tube","Westbourne Park",2,"-.200883771467904430,51.520920849526010000,0",-0.200883771467904,51.520920849526,0
"236","1000266","tube","Westminster",1,"-.124818265200698930,51.501084583446460000,0",-0.124818265200699,51.5010845834465,0
"237","1000269","tube","White City",2,"-.224254319227984920,51.511978113587034000,0",-0.224254319227985,51.511978113587,0
"238","1000268","tube","Whitechapel",2,"-.059984982962259466,51.519455246890790000,0",-0.0599849829622595,51.5194552468908,0
"239","1000270","tube","Willesden Green",2,"-.222410152080799300,51.549308888247985000,0",-0.222410152080799,51.549308888248,0
"240","1000273","tube","Wimbledon Park",3,"-.199595272173123170,51.434464186025440000,0",-0.199595272173123,51.4344641860254,0
"241","1000275","tube","Wood Green",3,"-.109626380548445640,51.597476031308410000,0",-0.109626380548446,51.5974760313084,0
"242","1000274","tube","Woodford",4,".034037144154079255,51.607033365181010000,0",0.0340371441540793,51.607033365181,0
"243","1000276","tube","Woodside Park",4,"-.185421027508838540,51.617811407382945000,0",-0.185421027508839,51.6178114073829,0
"244","1002003","dlr","All Saints",NA,"-.012751749577122285,51.511010078082435000,0",-0.0127517495771223,51.5110100780824,0
"245","1002011","dlr","Beckton",NA,".060942442359961540,51.515133282604730000,0",0.0609424423599615,51.5151332826047,0
"246","1002012","dlr","Beckton Park",NA,".054897746701542370,51.508943792676580000,0",0.0548977467015424,51.5089437926766,0
"247","1002018","dlr","Blackwall",NA,"-.007108496961494498,51.508216114618390000,0",-0.0071084969614945,51.5082161146184,0
"248","1002019","dlr","Bow Church",NA,"-.020691424393872180,51.527333106708156000,0",-0.0206914243938722,51.5273331067082,0
"249","1000032","tube","Bromley-By-Bow",NA,"-.011661937058285864,51.524769937557340000,0",-0.0116619370582859,51.5247699375573,0
"250","1002025","dlr","Crossharbour & London Arena",NA,"-.014614325661385941,51.495698374116300000,0",-0.0146143256613859,51.4956983741163,0
"251","1001079","dlr","Custom House",NA,".027684411363851222,51.509543816964380000,0",0.0276844113638512,51.5095438169644,0
"252","1002027","dlr","Cutty Sark",NA,"-.010858772708086980,51.481694371850814000,0",-0.010858772708087,51.4816943718508,0
"253","1002028","dlr","Cyprus",NA,".063538519717122620,51.508791930274770000,0",0.0635385197171226,51.5087919302748,0
"254","1002029","dlr","Deptford Bridge",NA,"-.021550621322944774,51.474284721273506000,0",-0.0215506213229448,51.4742847212735,0
"255","1002030","dlr","Devons Road",NA,"-.017224616322978142,51.522175080544790000,0",-0.0172246163229781,51.5221750805448,0
"256","1002033","dlr","East India",NA,"-.002748663563422358,51.509041249107980000,0",-0.00274866356342236,51.509041249108,0
"257","1000071","tube","Edgware Road Bakerloo",NA,"-.170135073011915440,51.520183893832000000,0",-0.170135073011915,51.520183893832,0
"258","1000072","tube","Edgware Road Circle",NA,"-.167666130737583900,51.519920474367346000,0",-0.167666130737584,51.5199204743673,0
"259","1002035","dlr","Elverson Road",NA,"-.017467307436164158,51.468819427590320000,0",-0.0174673074361642,51.4688194275903,0
"260","1002039","dlr","Gallions Reach",NA,".072220032947865110,51.509538091545025000,0",0.0722200329478651,51.509538091545,0
"261","1001123","dlr","Greenwich",NA,"-.014198816568398007,51.477757816350250000,0",-0.014198816568398,51.4777578163502,0
"262","1000094","tube","Gunnersbury",NA,"-.275175034795658400,51.491793104326040000,0",-0.275175034795658,51.491793104326,0
"263","1000097","tube","Hammersmith",NA,"-.224930071064953470,51.493497772006556000,0",-0.224930071064953,51.4934977720066,0
"264","1000096","tube","Hammersmith (D & P)",NA,"-.222401730524214160,51.492569079748954000,0",-0.222401730524214,51.492569079749,0
"265","1000100","tube","Harlesden",NA,"-.257502755154927540,51.536192910154740000,0",-0.257502755154928,51.5361929101547,0
"266","1000101","tube","Harrow & Wealdstone",NA,"-.335231166241641700,51.592208827964880000,0",-0.335231166241642,51.5922088279649,0
"267","1000102","tube","Harrow on the Hill",NA,"-.337015904256826800,51.579328867281140000,0",-0.337015904256827,51.5793288672811,0
"268","1000105","tube","Heathrow Terminals 1, 2, 3",NA,"-.452439130961683100,51.471219210060410000,0",-0.452439130961683,51.4712192100604,0
"269","1002046","dlr","Heron Quays",NA,"-.021744064999687465,51.503067915299190000,0",-0.0217440649996875,51.5030679152992,0
"270","1002048","dlr","Island Gardens",NA,"-.009489509781986224,51.486671636732005000,0",-0.00948950978198622,51.486671636732,0
"271","1000122","tube","Kensal Green",NA,"-.224716964703163850,51.530457666116990000,0",-0.224716964703164,51.530457666117,0
"272","1000170","tube","Kensington (Olympia)",NA,"-.210382523117471270,51.497809167384910000,0",-0.210382523117471,51.4978091673849,0
"273","1000124","tube","Kenton",NA,"-.317164405857978500,51.581788462601410000,0",-0.317164405857979,51.5817884626014,0
"274","1000125","tube","Kew Gardens",NA,"-.285252328214689150,51.477029930152850000,0",-0.285252328214689,51.4770299301529,0
"275","1000129","tube","King's Cross St. Pancras",1,"-.123857948142452990,51.530397237917526000,0",-0.123857948142453,51.5303972379175,0
"276","1001177","dlr","Lewisham",NA,"-.014706587477352798,51.466074537491664000,0",-0.0147065874773528,51.4660745374917,0
"277","1001180","dlr","Limehouse",NA,"-.039712576574314410,51.512498517496160000,0",-0.0397125765743144,51.5124985174962,0
"278","1002061","dlr","Mudchute",NA,"-.015091214701629630,51.490364179631120000,0",-0.0150912147016296,51.4903641796311,0
"279","1000155","tube","New Cross",NA,"-.032594570758595160,51.476674202455730000,0",-0.0325945707585952,51.4766742024557,0
"280","1000156","tube","New Cross Gate",NA,"-.040299579158885705,51.475337384701450000,0",-0.0402995791588857,51.4753373847014,0
"281","1000163","tube","North Wembley",NA,"-.304155735382629300,51.562490285575436000,0",-0.304155735382629,51.5624902855754,0
"282","1002064","dlr","Poplar",NA,"-.017228773736863470,51.507488443277030000,0",-0.0172287737368635,51.507488443277,0
"283","1002065","dlr","Prince Regent",NA,".033295484514232420,51.509320665460960000,0",0.0332954845142324,51.509320665461,0
"284","1002066","dlr","Pudding Mill Lane",NA,"-.013174228379466220,51.534400840867900000,0",-0.0131742283794662,51.5344008408679,0
"285","1000186","tube","Queen's Park",NA,"-.204704090234202700,51.534100903446934000,0",-0.204704090234203,51.5341009034469,0
"286","1000192","tube","Richmond",NA,"-.301754217686892100,51.463159640859740000,0",-0.301754217686892,51.4631596408597,0
"287","1002070","dlr","Royal Albert",NA,".046216593557986540,51.508196344367040000,0",0.0462165935579865,51.508196344367,0
"288","1002071","dlr","Royal Victoria",NA,".018078557359541534,51.509062110622175000,0",0.0180785573595415,51.5090621106222,0
"289","1000203","tube","Shepherd's Bush Central",NA,"-.226305459017774930,51.505560868490754000,0",-0.226305459017775,51.5055608684908,0
"290","1000203","tube","Shepherd's Bush Hammersmith & City",NA,"-.226305459017774930,51.505560868490754000,0",-0.226305459017775,51.5055608684908,0
"291","1000213","tube","South Kenton",NA,"-.308588675020215030,51.570171686871360000,0",-0.308588675020215,51.5701716868714,0
"292","1002074","dlr","South Quay",NA,"-.019101694079593993,51.500532011008650000,0",-0.019101694079594,51.5005320110087,0
"293","1000221","tube","St. James's Park",1,"-.134183744115531720,51.499345456140375000,0",-0.134183744115532,51.4993454561404,0
"294","1000222","tube","St. John's Wood",NA,"-.174172356336729750,51.534564516315330000,0",-0.17417235633673,51.5345645163153,0
"295","1000225","tube","St. Paul's",1,"-.097573654477604190,51.514801296733296000,0",-0.0975736544776042,51.5148012967333,0
"296","1000224","tube","Stonebridge Park",NA,"-.275409247579834260,51.543922285834710000,0",-0.275409247579834,51.5439222858347,0
"297","1002076","dlr","Tower Gateway",NA,"-.074530960965560940,51.510566638763080000,0",-0.0745309609655609,51.5105666387631,0
"298","1000256","tube","Wembley Central",NA,"-.296859445373195800,51.552329965978000000,0",-0.296859445373196,51.552329965978,0
"299","1002084","dlr","West India Quay",NA,"-.020148081137071500,51.506638439327860000,0",-0.0201480811370715,51.5066384393279,0
"300","1002083","dlr","Westferry",NA,"-.025791956499847963,51.509431782335305000,0",-0.025791956499848,51.5094317823353,0
"301","1000271","tube","Willesden Junction",NA,"-.244288894517034600,51.532191497103640000,0",-0.244288894517035,51.5321914971036,0
"302","1000272","tube","Wimbledon",NA,"-.206381586903591980,51.421383719531770000,0",-0.206381586903592,51.4213837195318,0
